__time,joint1_position,joint2_position,joint3_position,joint4_position,joint5_position,joint6_position
1664545410.21055,0.394099,1.745355,0.605669,1.193437,0.357418,-1.107534
1664545410.23012,0.381697,1.746564,0.603888,1.204175,0.335942,-1.127476
1664545410.25075,0.369025,1.747805,0.60219,1.216447,0.314466,-1.14435
1664545410.2704,0.356187,1.749089,0.60043,1.227185,0.289922,-1.164292
1664545410.29024,0.343143,1.750392,0.598691,1.240991,0.266913,-1.182699
1664545410.31019,0.329902,1.751696,0.59689,1.253262,0.243903,-1.202641
1664545410.33026,0.316443,1.753036,0.595026,1.262466,0.219359,-1.222583
1664545410.3502,0.302632,1.754415,0.593131,1.273204,0.194816,-1.244058
1664545410.37026,0.288553,1.755837,0.591206,1.28701,0.171806,-1.264
1664545410.39025,0.274307,1.757253,0.589301,1.300816,0.147262,-1.283942
1664545410.41094,0.259948,1.758706,0.587334,1.311554,0.122718,-1.305418
1664545410.4309,0.24534,1.760204,0.585305,1.322291,0.096641,-1.326893
1664545410.45049,0.230484,1.761739,0.583255,1.336097,0.070563,-1.346835
1664545410.47001,0.215379,1.763261,0.581267,1.349903,0.046019,-1.369845
1664545410.49034,0.200047,1.764834,0.57929,1.360641,0.019942,-1.391321
1664545410.51018,0.184518,1.766419,0.577333,1.374447,-0.003068,-1.41433
1664545410.53025,0.168885,1.768054,0.575242,1.388253,-0.032214,-1.435806
1664545410.55049,0.153097,1.769683,0.573089,1.400524,-0.059825,-1.458816
1664545410.57116,0.136947,1.771343,0.570914,1.412796,-0.087437,-1.480291
1664545410.59077,0.120486,1.773041,0.56872,1.425068,-0.111981,-1.501767
1664545410.61085,0.103807,1.774764,0.566597,1.43734,-0.138058,-1.521709
1664545410.63081,0.087067,1.776487,0.56434,1.449612,-0.164136,-1.543185
1664545410.65074,0.070192,1.778248,0.562187,1.463418,-0.190214,-1.563126
1664545410.67043,0.053089,1.780021,0.559899,1.47569,-0.214757,-1.583068
1664545410.6903,0.0358,1.781812,0.557518,1.487961,-0.240835,-1.604544
1664545410.71063,0.018387,1.783611,0.555189,1.500233,-0.263845,-1.622952
1664545410.73057,0.000952,1.785421,0.552766,1.510971,-0.286854,-1.644427
1664545410.75035,-0.016482,1.787257,0.550281,1.523243,-0.311398,-1.664369
1664545410.77057,-0.034123,1.789093,0.547755,1.533981,-0.334408,-1.682777
1664545410.79097,-0.052064,1.79096,0.545281,1.544719,-0.358952,-1.702719
1664545410.81055,-0.069995,1.792814,0.542869,1.555457,-0.381961,-1.721126
1664545410.83052,-0.087916,1.794669,0.540394,1.566194,-0.403437,-1.739534
1664545410.85069,-0.105878,1.796511,0.537972,1.575398,-0.426447,-1.759476
1664545410.87073,-0.123933,1.798365,0.535549,1.58767,-0.447922,-1.777884
1664545410.89116,-0.142019,1.800232,0.533158,1.598408,-0.469398,-1.794758
1664545410.91102,-0.160126,1.802055,0.530766,1.609146,-0.490874,-1.813165
1664545410.93099,-0.178161,1.803904,0.528323,1.61835,-0.51235,-1.830039
1664545410.95097,-0.195305,1.805796,0.525952,1.630622,-0.533825,-1.848447
1664545410.97087,-0.214375,1.807638,0.523675,1.639825,-0.555301,-1.865321
1664545410.99099,-0.231664,1.809505,0.521273,1.650563,-0.576777,-1.883729
1664545411.01089,-0.249668,1.811372,0.51883,1.661301,-0.595185,-1.900602
1664545411.03087,-0.267568,1.81322,0.516469,1.670505,-0.615126,-1.915942
1664545411.05058,-0.285457,1.815037,0.51414,1.679709,-0.635068,-1.93435
1664545411.07065,-0.303368,1.81686,0.511748,1.687379,-0.65501,-1.94969
1664545411.08099,-0.312343,1.817781,0.510527,1.693515,-0.664214,-1.95736
1664545411.10067,-0.330171,1.819604,0.508177,1.702719,-0.684155,-1.972699
1664545411.13105,-0.356653,1.822317,0.504729,1.716525,-0.711767,-1.994175
1664545411.14065,-0.365432,1.823226,0.50358,1.721126,-0.720971,-2.001845
1664545411.16099,-0.383146,1.82503,0.50124,1.73033,-0.739379,-2.017185
1664545411.18062,-0.400808,1.826697,0.498942,1.739534,-0.756253,-2.032525
1664545411.20078,-0.418325,1.828532,0.496809,1.747204,-0.77466,-2.04633
1664545411.22142,-0.435614,1.830268,0.494604,1.754874,-0.79,-2.06167
1664545411.24117,-0.452748,1.831922,0.492337,1.762544,-0.806874,-2.073942
1664545411.26106,-0.469757,1.833632,0.490101,1.770214,-0.822214,-2.087748
1664545411.28109,-0.486643,1.835343,0.487916,1.779418,-0.840621,-2.10002
1664545411.31107,-0.511614,1.837924,0.484531,1.790156,-0.863631,-2.121495
1664545411.33103,-0.527888,1.839603,0.482346,1.797826,-0.878971,-2.133767
1664545411.35009,-0.544173,1.841295,0.480203,1.805495,-0.892777,-2.144505
1664545411.37002,-0.560437,1.842948,0.478102,1.811631,-0.909651,-2.156777
1664545411.39035,-0.576515,1.84459,0.476073,1.819301,-0.923456,-2.169049
1664545411.41033,-0.592345,1.846225,0.474116,1.826971,-0.937262,-2.181321
1664545411.43019,-0.607988,1.847835,0.472097,1.831573,-0.951068,-2.192059
1664545411.45045,-0.623496,1.849439,0.470016,1.837709,-0.964874,-2.202796
1664545411.47003,-0.638787,1.850999,0.467966,1.843845,-0.97868,-2.213534
1664545411.49054,-0.653902,1.852547,0.46603,1.849981,-0.990952,-2.224272
1664545411.50992,-0.668821,1.854069,0.464063,1.857651,-1.001689,-2.233476
1664545411.53055,-0.683418,1.855604,0.462283,1.862253,-1.013961,-2.24268
1664545411.55014,-0.697622,1.857102,0.460471,1.868389,-1.024699,-2.251884
1664545411.57022,-0.711661,1.858562,0.458545,1.874525,-1.035437,-2.261088
1664545411.59049,-0.725637,1.859996,0.456682,1.879127,-1.047709,-2.270292
1664545411.60993,-0.739416,1.861444,0.454808,1.885262,-1.058447,-2.281029
1664545411.63021,-0.752896,1.862859,0.452882,1.889864,-1.067651,-2.287165
1664545411.65041,-0.766054,1.864238,0.451164,1.894466,-1.076855,-2.294835
1664545411.67051,-0.778892,1.865597,0.449445,1.897534,-1.086058,-2.300971
1664545411.69019,-0.791491,1.866932,0.447758,1.902136,-1.092194,-2.307107
1664545411.7102,-0.803769,1.868254,0.446205,1.90367,-1.099864,-2.313243
1664545411.7304,-0.815737,1.869526,0.444548,1.906738,-1.107534,-2.317845
1664545411.75072,-0.827343,1.870741,0.442995,1.909806,-1.112136,-2.322447
1664545411.77032,-0.838648,1.871944,0.44137,1.912874,-1.118272,-2.328583
1664545411.79033,-0.849611,1.873134,0.439796,1.917476,-1.122874,-2.333185
1664545411.81051,-0.860005,1.874294,0.438285,1.920544,-1.130544,-2.337787
1664545411.83022,-0.870172,1.875415,0.436784,1.922078,-1.135146,-2.342389
1664545411.85087,-0.880017,1.876486,0.435469,1.925146,-1.141282,-2.346991
1664545411.87058,-0.889542,1.877551,0.434113,1.92668,-1.145884,-2.350059
1664545411.89061,-0.898777,1.878604,0.432736,1.929748,-1.150486,-2.354661
1664545411.91026,-0.907649,1.879632,0.431504,1.932816,-1.155088,-2.357728
1664545411.93033,-0.916097,1.880646,0.430127,1.93435,-1.15969,-2.36233
1664545411.95044,-0.924193,1.881611,0.428802,1.935884,-1.164292,-2.365398
1664545411.9703,-0.931916,1.882564,0.427632,1.937418,-1.167359,-2.366932
1664545411.99065,-0.939287,1.883491,0.426359,1.938952,-1.170427,-2.37
1664545412.01074,-0.946286,1.884355,0.425137,1.940486,-1.173495,-2.371534
1664545412.03072,-0.952994,1.885201,0.424184,1.94202,-1.175029,-2.373068
1664545412.05052,-0.959247,1.88606,0.423201,1.94202,-1.176563,-2.374602
1664545412.07074,-0.965159,1.886862,0.422176,1.943554,-1.178097,-2.376136
1664545412.09028,-0.970697,1.887638,0.421213,1.943554,-1.178097,-2.376136
1664545412.11062,-0.975801,1.888353,0.420375,1.943554,-1.179631,-2.376136
1664545412.13051,-0.980491,1.889054,0.419505,1.943554,-1.179631,-2.376136
1664545412.1509,-0.984808,1.889725,0.418625,1.943554,-1.179631,-2.376136
1664545412.17061,-0.988784,1.890357,0.417818,1.943554,-1.179631,-2.376136
1664545412.19098,-0.992397,1.890971,0.417227,1.945088,-1.179631,-2.37767
1664545412.21049,-0.995751,1.891573,0.416523,1.945088,-1.179631,-2.376136
1664545412.23082,-0.998847,1.892187,0.41583,1.945088,-1.179631,-2.37767
1664545412.25091,-1.001652,1.892745,0.415126,1.943554,-1.179631,-2.37767
1664545412.27034,-1.004054,1.893283,0.414277,1.945088,-1.179631,-2.376136
1664545412.29092,-1.006352,1.893785,0.413687,1.945088,-1.179631,-2.376136
1664545412.31053,-1.008495,1.894273,0.413055,1.945088,-1.179631,-2.37767
1664545412.33058,-1.010545,1.894731,0.412413,1.943554,-1.179631,-2.376136
1664545412.35126,-1.012502,1.895194,0.411916,1.945088,-1.179631,-2.376136
1664545412.37073,-1.014345,1.895608,0.411368,1.945088,-1.179631,-2.37767
1664545412.39115,-1.016012,1.896028,0.410747,1.943554,-1.179631,-2.376136
1664545412.41069,-1.017554,1.896429,0.41027,1.945088,-1.179631,-2.376136
1664545412.43118,-1.018941,1.896804,0.409877,1.943554,-1.179631,-2.376136
1664545412.45081,-1.020287,1.897174,0.409349,1.943554,-1.179631,-2.37767
1664545412.47071,-1.021561,1.897531,0.408893,1.945088,-1.179631,-2.376136
1664545412.49068,-1.022751,1.897882,0.408541,1.943554,-1.179631,-2.37767
1664545412.5109,-1.023766,1.898227,0.408231,1.945088,-1.179631,-2.376136
1664545412.53068,-1.024708,1.898546,0.407869,1.945088,-1.179631,-2.376136
1664545412.5409,-1.025184,1.89869,0.407579,1.945088,-1.181165,-2.376136
1664545412.56112,-1.026033,1.899022,0.406989,1.945088,-1.179631,-2.376136
1664545412.58079,-1.026696,1.899298,0.406626,1.945088,-1.179631,-2.37767
1664545412.60107,-1.027141,1.899542,0.406347,1.945088,-1.181165,-2.37767
1664545412.62117,-1.027544,1.899774,0.406077,1.943554,-1.181165,-2.376136
1664545412.64114,-1.027907,1.899981,0.405777,1.945088,-1.179631,-2.376136
1664545412.66062,-1.028176,1.900181,0.405549,1.943554,-1.179631,-2.374602
1664545412.68086,-1.028228,1.900326,0.405425,1.94202,-1.175029,-2.373068
1664545412.70079,-1.028218,1.900419,0.40527,1.940486,-1.171961,-2.37
1664545412.72139,-1.028041,1.900495,0.405115,1.938952,-1.167359,-2.366932
1664545412.74092,-1.027348,1.900495,0.405053,1.935884,-1.162758,-2.36233
1664545412.76084,-1.026313,1.900495,0.405042,1.93435,-1.158156,-2.357728
1664545412.79092,-1.024408,1.900463,0.405042,1.929748,-1.150486,-2.351593
1664545412.80121,-1.023631,1.900438,0.405042,1.928214,-1.145884,-2.348525
1664545412.82119,-1.021861,1.900401,0.405042,1.925146,-1.141282,-2.343923
1664545412.84976,-1.018755,1.900319,0.405053,1.920544,-1.132078,-2.336253
1664545412.87006,-1.01625,1.90025,0.405053,1.91901,-1.124408,-2.330117
1664545412.8902,-1.013392,1.900175,0.405063,1.915942,-1.119806,-2.325515
1664545412.91045,-1.010276,1.900062,0.405073,1.91134,-1.112136,-2.320913
1664545412.93027,-1.007005,1.899843,0.405135,1.908272,-1.106,-2.316311
1664545412.95005,-1.003361,1.899605,0.405208,1.90367,-1.09833,-2.308641
1664545412.97057,-0.999468,1.899373,0.405291,1.900602,-1.092194,-2.302505
1664545412.99004,-0.995441,1.899154,0.405405,1.896,-1.084524,-2.296369
1664545413.01024,-0.991299,1.898828,0.405539,1.892932,-1.073787,-2.288699
1664545413.03045,-0.986931,1.898333,0.405705,1.88833,-1.064583,-2.281029
1664545413.05018,-0.982458,1.89797,0.405943,1.882195,-1.053845,-2.271826
1664545413.07006,-0.977934,1.897494,0.406378,1.877593,-1.043107,-2.261088
1664545413.09011,-0.973265,1.897049,0.406957,1.871457,-1.032369,-2.251884
1664545413.11038,-0.968492,1.89656,0.407775,1.866855,-1.021631,-2.244214
1664545413.13005,-0.963564,1.89599,0.408645,1.860719,-1.010893,-2.23501
1664545413.15028,-0.958378,1.895476,0.409577,1.856117,-0.998622,-2.224272
1664545413.17017,-0.952953,1.894956,0.410581,1.849981,-0.984816,-2.213534
1664545413.19002,-0.947404,1.894474,0.411616,1.843845,-0.972544,-2.202796
1664545413.21,-0.941606,1.893885,0.412589,1.837709,-0.960272,-2.192059
1664545413.23046,-0.935384,1.893302,0.413625,1.830039,-0.946466,-2.181321
1664545413.25048,-0.928883,1.892757,0.414701,1.823903,-0.93266,-2.169049
1664545413.27063,-0.92207,1.892149,0.415851,1.816233,-0.918855,-2.156777
1664545413.29072,-0.914958,1.891523,0.416906,1.808563,-0.903515,-2.146039
1664545413.31043,-0.907494,1.890802,0.418056,1.802428,-0.888175,-2.132233
1664545413.33016,-0.899843,1.890132,0.419215,1.794758,-0.872835,-2.118428
1664545413.35067,-0.891975,1.889418,0.420375,1.787088,-0.857495,-2.106156
1664545413.37013,-0.8839,1.888628,0.421617,1.779418,-0.843689,-2.09235
1664545413.39035,-0.875628,1.887883,0.422828,1.771748,-0.825282,-2.078544
1664545413.41045,-0.86718,1.887162,0.424102,1.762544,-0.808408,-2.064738
1664545413.43067,-0.858649,1.886373,0.425323,1.754874,-0.791534,-2.049398
1664545413.45109,-0.849912,1.885546,0.426648,1.747204,-0.77466,-2.035593
1664545413.47057,-0.841091,1.884713,0.427963,1.738,-0.756253,-2.021787
1664545413.49058,-0.832105,1.883848,0.429319,1.728796,-0.737845,-2.006447
1664545413.51061,-0.822818,1.883034,0.430769,1.719592,-0.719437,-1.989573
1664545413.53104,-0.813242,1.882169,0.432239,1.710389,-0.701029,-1.974233
1664545413.55096,-0.803158,1.881285,0.43374,1.701185,-0.682621,-1.95736
1664545413.57061,-0.792712,1.880415,0.435303,1.693515,-0.66268,-1.94202
1664545413.59079,-0.781935,1.879475,0.436856,1.684311,-0.644272,-1.925146
1664545413.61063,-0.77092,1.878529,0.43842,1.673573,-0.622796,-1.908272
1664545413.63034,-0.760246,1.877558,0.439993,1.662835,-0.602854,-1.891398
1664545413.65098,-0.74833,1.876549,0.44165,1.652097,-0.581379,-1.874525
1664545413.67045,-0.737387,1.875553,0.443368,1.642893,-0.561437,-1.857651
1664545413.69042,-0.72514,1.874481,0.445097,1.632156,-0.539961,-1.839243
1664545413.71062,-0.713855,1.873454,0.446857,1.621418,-0.516952,-1.820835
1664545413.73102,-0.701701,1.872345,0.448627,1.61068,-0.49701,-1.802428
1664545413.75093,-0.689381,1.871249,0.450491,1.599942,-0.474,-1.782486
1664545413.77062,-0.676896,1.870127,0.452344,1.589204,-0.452524,-1.764078
1664545413.79088,-0.664348,1.869006,0.454249,1.578466,-0.429515,-1.744136
1664545413.81094,-0.651656,1.867872,0.456185,1.566194,-0.408039,-1.725728
1664545413.83087,-0.638549,1.866694,0.458173,1.555457,-0.385029,-1.707321
1664545413.85096,-0.62508,1.865441,0.460212,1.544719,-0.360485,-1.687379
1664545413.87055,-0.611166,1.864188,0.462241,1.533981,-0.335942,-1.667437
1664545413.89065,-0.597014,1.862891,0.464291,1.520175,-0.311398,-1.644427
1664545413.91098,-0.582655,1.861644,0.466445,1.507903,-0.28532,-1.624486
1664545413.93075,-0.568202,1.86036,0.468619,1.497165,-0.262311,-1.604544
1664545413.95077,-0.553584,1.85905,0.470793,1.483359,-0.236233,-1.583068
1664545413.97067,-0.538779,1.857753,0.473008,1.471088,-0.210155,-1.561592
1664545413.99108,-0.523716,1.856281,0.475338,1.458816,-0.184078,-1.541651
1664545414.01068,-0.508446,1.854946,0.477708,1.446544,-0.158,-1.520175
1664545414.03079,-0.493082,1.853462,0.480027,1.434272,-0.131922,-1.497165
1664545414.04119,-0.485442,1.852641,0.481208,1.426602,-0.118117,-1.484893
1664545414.06095,-0.469913,1.851231,0.483516,1.415864,-0.090505,-1.463418
1664545414.08118,-0.454052,1.849803,0.485918,1.403592,-0.064427,-1.441942
1664545414.10117,-0.43784,1.848305,0.48833,1.391321,-0.03835,-1.418932
1664545414.12085,-0.421327,1.846777,0.490794,1.377515,-0.013806,-1.397457
1664545414.1411,-0.40468,1.845248,0.493289,1.363709,0.012272,-1.377515
1664545414.16083,-0.387981,1.843688,0.495743,1.351437,0.039884,-1.357573
1664545414.18116,-0.370298,1.842065,0.498269,1.342233,0.064427,-1.336097
1664545414.20128,-0.354096,1.840549,0.500743,1.328427,0.088971,-1.313088
1664545414.22087,-0.336869,1.838964,0.5033,1.316156,0.113515,-1.296214
1664545414.2412,-0.31957,1.837398,0.505909,1.303884,0.138058,-1.274738
1664545414.26096,-0.302218,1.835844,0.508539,1.293146,0.161068,-1.254796
1664545414.2913,-0.275819,1.833419,0.512452,1.274738,0.19635,-1.225651
1664545414.30147,-0.266884,1.832592,0.513808,1.270136,0.208621,-1.216447
1664545414.32999,-0.239967,1.830124,0.517774,1.253262,0.243903,-1.188835
1664545414.3502,-0.222036,1.82847,0.520393,1.242525,0.265379,-1.168893
1664545414.36091,-0.213122,1.827624,0.521718,1.236389,0.277651,-1.158156
1664545414.38993,-0.186257,1.825124,0.525673,1.222583,0.309864,-1.133612
1664545414.41051,-0.168264,1.823483,0.528375,1.210311,0.332874,-1.115204
1664545414.42993,-0.150353,1.821828,0.531046,1.199573,0.352816,-1.096796
1664545414.45063,-0.132526,1.820181,0.533696,1.190369,0.374291,-1.081457
1664545414.47042,-0.114574,1.818552,0.536212,1.179631,0.395767,-1.064583
1664545414.49038,-0.096488,1.816948,0.538852,1.170427,0.415709,-1.046175
1664545414.51022,-0.078277,1.815306,0.541678,1.161224,0.437185,-1.029301
1664545414.53051,-0.06015,1.813659,0.544184,1.150486,0.457126,-1.013961
1664545414.55066,-0.042188,1.81208,0.546803,1.141282,0.475534,-0.997088
1664545414.57054,-0.024277,1.810501,0.549443,1.132078,0.495476,-0.981748
1664545414.59083,-0.006419,1.808916,0.552021,1.12134,0.513884,-0.966408
1664545414.61048,0.011357,1.807337,0.554557,1.110602,0.535359,-0.949534
1664545414.63019,0.028864,1.805796,0.557083,1.106,0.552233,-0.935728
1664545414.65054,0.046318,1.804242,0.55962,1.096796,0.570641,-0.917321
1664545414.67018,0.063835,1.802713,0.562166,1.087592,0.587515,-0.905049
1664545414.69036,0.081373,1.801153,0.564672,1.078389,0.604388,-0.889709
1664545414.71049,0.098828,1.799612,0.567208,1.069185,0.622796,-0.877437
1664545414.73019,0.116044,1.798108,0.569765,1.059981,0.638136,-0.863631
1664545414.75023,0.133085,1.796611,0.572291,1.052311,0.65501,-0.848291
1664545414.77028,0.14997,1.795101,0.574755,1.046175,0.671884,-0.83602
1664545414.79065,0.166783,1.79361,0.57723,1.041573,0.688757,-0.822214
1664545414.81056,0.183306,1.792163,0.579694,1.033903,0.705631,-0.809942
1664545414.83066,0.199612,1.790734,0.582075,1.023165,0.719437,-0.79767
1664545414.8505,0.215752,1.789362,0.584466,1.017029,0.733243,-0.786932
1664545414.87059,0.231851,1.787965,0.586816,1.010893,0.748583,-0.773126
1664545414.8907,0.247846,1.78658,0.589197,1.003223,0.760854,-0.762388
1664545414.91057,0.263706,1.785208,0.591579,0.995554,0.77466,-0.751651
1664545414.93062,0.279308,1.783824,0.593887,0.987884,0.788466,-0.740913
1664545414.95036,0.294702,1.782464,0.596113,0.983282,0.802272,-0.728641
1664545414.97072,0.309828,1.781079,0.598329,0.97868,0.816078,-0.717903
1664545414.991,0.324798,1.779757,0.600534,0.97101,0.829884,-0.707165
1664545415.01082,0.33953,1.778392,0.602697,0.961806,0.842155,-0.697961
1664545415.03064,0.353941,1.777045,0.60483,0.957204,0.854427,-0.687223
1664545415.05066,0.368124,1.775748,0.606973,0.954136,0.865165,-0.67802
1664545415.07081,0.382173,1.774457,0.609085,0.949534,0.877437,-0.668816
1664545415.09084,0.396025,1.773198,0.611156,0.94033,0.888175,-0.658078
1664545415.11065,0.409711,1.771926,0.613143,0.934194,0.898913,-0.648874
1664545415.1306,0.423191,1.770685,0.615142,0.931126,0.909651,-0.63967
1664545415.15096,0.436401,1.769457,0.61714,0.926524,0.920389,-0.630466
1664545415.17084,0.449331,1.768292,0.619044,0.921923,0.929592,-0.62433
1664545415.1907,0.462003,1.767133,0.62096,0.917321,0.94033,-0.61666
1664545415.21087,0.473754,1.765986,0.622823,0.912719,0.948,-0.60899
1664545415.23081,0.486467,1.764821,0.624625,0.909651,0.95567,-0.604388
1664545415.25071,0.498331,1.763725,0.626447,0.906583,0.96334,-0.599787
1664545415.27086,0.509202,1.762635,0.628217,0.903515,0.967942,-0.593651
1664545415.29055,0.520341,1.761588,0.629998,0.900447,0.974078,-0.589049
1664545415.31076,0.531129,1.760548,0.631716,0.897379,0.980214,-0.582913
1664545415.33062,0.541626,1.759546,0.633445,0.894311,0.98635,-0.579845
1664545415.35085,0.551845,1.75855,0.635071,0.891243,0.992486,-0.573709
1664545415.37088,0.561721,1.75761,0.636655,0.888175,0.998622,-0.570641
1664545415.39055,0.571287,1.756701,0.638197,0.886641,1.001689,-0.566039
1664545415.4107,0.580543,1.755812,0.639667,0.883573,1.007825,-0.561437
1664545415.43079,0.589384,1.754972,0.641137,0.882039,1.012427,-0.558369
1664545415.45077,0.597873,1.754145,0.642535,0.880505,1.018563,-0.553767
1664545415.47096,0.60601,1.753331,0.643964,0.877437,1.021631,-0.549165
1664545415.49119,0.613734,1.75256,0.645392,0.875903,1.026233,-0.547631
1664545415.5108,0.621157,1.751739,0.646676,0.874369,1.029301,-0.544563
1664545415.53078,0.628227,1.750931,0.647939,0.872835,1.030835,-0.543029
1664545415.55102,0.634967,1.750229,0.649213,0.871301,1.033903,-0.541495
1664545415.5705,0.641375,1.749528,0.6503,0.871301,1.035437,-0.539961
1664545415.59113,0.647473,1.748801,0.651418,0.869767,1.036971,-0.538427
1664545415.61048,0.653188,1.748168,0.652536,0.869767,1.038505,-0.536893
1664545415.63098,0.658489,1.74756,0.653561,0.868233,1.038505,-0.536893
1664545415.65107,0.663386,1.746896,0.654565,0.868233,1.038505,-0.535359
1664545415.67099,0.667889,1.746345,0.655517,0.868233,1.040039,-0.536893
1664545415.69059,0.671937,1.745781,0.656501,0.868233,1.040039,-0.536893
1664545415.71118,0.675685,1.745355,0.657371,0.868233,1.040039,-0.535359
1664545415.73091,0.679132,1.744772,0.658302,0.868233,1.040039,-0.535359
1664545415.7504,0.682279,1.744334,0.659182,0.868233,1.040039,-0.536893
1664545415.77086,0.685251,1.743826,0.660073,0.868233,1.040039,-0.536893
1664545415.7909,0.687911,1.74345,0.660859,0.869767,1.040039,-0.535359
1664545415.81048,0.690334,1.742962,0.661553,0.868233,1.040039,-0.536893
1664545415.83063,0.692684,1.742498,0.662278,0.868233,1.040039,-0.535359
1664545415.85058,0.694951,1.742066,0.66293,0.868233,1.040039,-0.536893
1664545415.87061,0.696908,1.741608,0.663655,0.868233,1.038505,-0.535359
1664545415.89041,0.69872,1.741314,0.664307,0.868233,1.040039,-0.535359
1664545415.91038,0.700562,1.740894,0.664804,0.868233,1.040039,-0.535359
1664545415.93059,0.702198,1.740493,0.665384,0.868233,1.040039,-0.535359
1664545415.95073,0.703792,1.740211,0.665994,0.868233,1.040039,-0.535359
1664545415.97067,0.705055,1.739804,0.666512,0.868233,1.040039,-0.535359
1664545415.99047,0.706298,1.739478,0.66703,0.868233,1.040039,-0.535359
1664545416.01048,0.707437,1.739284,0.667599,0.868233,1.040039,-0.535359
1664545416.03064,0.708482,1.738965,0.668127,0.868233,1.040039,-0.535359
1664545416.05057,0.709538,1.738607,0.66852,0.868233,1.040039,-0.535359
1664545416.07134,0.710408,1.738357,0.668976,0.868233,1.040039,-0.535359
1664545416.09047,0.711174,1.738144,0.669411,0.868233,1.040039,-0.535359
1664545416.11074,0.711764,1.737812,0.669835,0.868233,1.040039,-0.535359
1664545416.13081,0.712302,1.737536,0.670146,0.868233,1.040039,-0.535359
1664545416.15067,0.712768,1.737373,0.670487,0.868233,1.040039,-0.535359
1664545416.17074,0.713048,1.737285,0.670839,0.868233,1.038505,-0.536893
1664545416.18983,0.713141,1.737223,0.671129,0.868233,1.036971,-0.538427
1664545416.2108,0.713131,1.737104,0.671326,0.869767,1.033903,-0.541495
1664545416.23021,0.713027,1.736966,0.67145,0.871301,1.030835,-0.546097
1664545416.25029,0.712468,1.736859,0.671512,0.872835,1.024699,-0.550699
1664545416.2701,0.711578,1.736841,0.671512,0.875903,1.020097,-0.555301
1664545416.29067,0.710304,1.736841,0.671512,0.878971,1.013961,-0.558369
1664545416.31001,0.708813,1.736847,0.671512,0.882039,1.007825,-0.562971
1664545416.33063,0.707033,1.736853,0.671512,0.883573,1.001689,-0.567573
1664545416.34979,0.704973,1.736903,0.671502,0.886641,0.995554,-0.572175
1664545416.37066,0.702633,1.736985,0.67144,0.889709,0.989418,-0.578311
1664545416.38993,0.699869,1.737079,0.671378,0.892777,0.984816,-0.582913
1664545416.41031,0.69697,1.737216,0.671316,0.895845,0.97868,-0.587515
1664545416.43034,0.693647,1.737373,0.671233,0.898913,0.97101,-0.593651
1664545416.44101,0.692042,1.737448,0.671202,0.900447,0.966408,-0.596719
1664545416.4703,0.686628,1.73768,0.671098,0.906583,0.957204,-0.604388
1664545416.49084,0.682942,1.737931,0.671005,0.909651,0.949534,-0.612058
1664545416.51028,0.679018,1.738206,0.670881,0.914253,0.94033,-0.618194
1664545416.52085,0.677113,1.738363,0.670757,0.915787,0.937262,-0.622796
1664545416.5503,0.671005,1.738946,0.67027,0.923456,0.923456,-0.635068
1664545416.57092,0.666812,1.73939,0.669752,0.929592,0.912719,-0.644272
1664545416.59016,0.662257,1.739835,0.669183,0.93266,0.901981,-0.651942
1664545416.60108,0.660011,1.740067,0.668759,0.934194,0.895845,-0.658078
1664545416.63042,0.652639,1.740819,0.667661,0.941864,0.878971,-0.67035
1664545416.64108,0.650144,1.741063,0.667164,0.946466,0.872835,-0.676486
1664545416.67005,0.642017,1.741865,0.665932,0.954136,0.854427,-0.690291
1664545416.68065,0.639284,1.742128,0.665446,0.957204,0.848291,-0.696427
1664545416.71003,0.63036,1.742968,0.664038,0.966408,0.831418,-0.711767
1664545416.72111,0.627368,1.743244,0.663489,0.97101,0.823748,-0.717903
1664545416.7502,0.61775,1.744083,0.661946,0.980214,0.80534,-0.734777
1664545416.76101,0.614562,1.744365,0.661398,0.984816,0.79767,-0.740913
1664545416.79006,0.604302,1.745305,0.659855,0.995554,0.776194,-0.757787
1664545416.80063,0.600855,1.745618,0.659203,1.000155,0.768524,-0.763922
1664545416.8299,0.589901,1.746589,0.657484,1.007825,0.747049,-0.78233
1664545416.85042,0.582541,1.74726,0.656387,1.013961,0.730175,-0.796136
1664545416.87024,0.574538,1.748005,0.655227,1.021631,0.714835,-0.809942
1664545416.89055,0.566711,1.748726,0.654058,1.032369,0.699495,-0.822214
1664545416.91015,0.558274,1.74949,0.653022,1.041573,0.682621,-0.83602
1664545416.9303,0.550002,1.750223,0.651884,1.050777,0.665748,-0.851359
1664545416.94997,0.540995,1.751019,0.650538,1.056913,0.650408,-0.865165
1664545416.97036,0.532216,1.751802,0.649244,1.064583,0.632,-0.878971
1664545416.99024,0.522702,1.752642,0.647908,1.072253,0.613592,-0.894311
1664545417.01076,0.513425,1.753475,0.646303,1.081457,0.595185,-0.909651
1664545417.03043,0.503601,1.754364,0.644833,1.092194,0.578311,-0.923456
1664545417.05061,0.493973,1.755242,0.643208,1.101398,0.558369,-0.941864
1664545417.07036,0.483568,1.756156,0.641603,1.109068,0.539961,-0.957204
1664545417.08997,0.473319,1.757052,0.64004,1.116738,0.52002,-0.972544
1664545417.11053,0.462842,1.75803,0.638342,1.127476,0.500078,-0.989418
1664545417.12996,0.451537,1.758988,0.636903,1.141282,0.48167,-1.006291
1664545417.14085,0.446153,1.759477,0.636033,1.145884,0.469398,-1.013961
1664545417.17056,0.429092,1.761043,0.633632,1.156622,0.440253,-1.040039
1664545417.1909,0.417797,1.762071,0.631923,1.167359,0.418777,-1.058447
1664545417.21021,0.405674,1.763142,0.630226,1.178097,0.397301,-1.075321
1664545417.23,0.39384,1.764201,0.62859,1.190369,0.375825,-1.093728
1664545417.25061,0.381831,1.765335,0.626685,1.202641,0.352816,-1.11367
1664545417.27006,0.368963,1.766431,0.624925,1.211845,0.33134,-1.132078
1664545417.28061,0.362761,1.767001,0.623921,1.216447,0.320602,-1.141282
1664545417.31013,0.343226,1.768762,0.621157,1.231787,0.286854,-1.168893
1664545417.33069,0.330409,1.769908,0.619086,1.244058,0.262311,-1.187301
1664545417.35016,0.316754,1.771149,0.61714,1.257864,0.239301,-1.207243
1664545417.37101,0.303419,1.772358,0.614955,1.270136,0.214757,-1.228719
1664545417.3903,0.289764,1.773674,0.612916,1.280874,0.191748,-1.24866
1664545417.40988,0.275208,1.774927,0.610711,1.288544,0.167204,-1.268602
1664545417.42073,0.26823,1.775553,0.609561,1.29468,0.154932,-1.27934
1664545417.4504,0.246375,1.777565,0.606414,1.316156,0.118117,-1.31002
1664545417.47081,0.232006,1.77888,0.604168,1.331495,0.092039,-1.331495
1664545417.49032,0.216622,1.780309,0.602004,1.342233,0.067495,-1.351437
1664545417.51076,0.201703,1.781668,0.599654,1.349903,0.039884,-1.374447
1664545417.53043,0.186599,1.783122,0.597345,1.363709,0.01534,-1.395923
1664545417.5499,0.170666,1.784525,0.595036,1.380583,-0.010738,-1.417398
1664545417.57088,0.155385,1.785954,0.592676,1.392855,-0.03835,-1.440408
1664545417.59029,0.139017,1.787501,0.590429,1.403592,-0.062893,-1.461884
1664545417.60069,0.131087,1.788228,0.589229,1.408194,-0.078233,-1.472622
1664545417.63051,0.106095,1.790552,0.585553,1.42967,-0.116583,-1.504835
1664545417.65113,0.089893,1.792075,0.583151,1.44501,-0.14266,-1.524777
1664545417.6707,0.072697,1.793697,0.580822,1.454214,-0.167204,-1.546253
1664545417.69033,0.05605,1.795226,0.578441,1.464952,-0.190214,-1.567728
1664545417.70115,0.047685,1.795991,0.577074,1.472622,-0.204019,-1.58
1664545417.73018,0.021472,1.798409,0.573503,1.489495,-0.239301,-1.609146
1664545417.74127,0.012951,1.799199,0.572188,1.495631,-0.251573,-1.619884
1664545417.77053,-0.013386,1.801604,0.568575,1.514039,-0.289922,-1.650563
1664545417.79094,-0.030624,1.803177,0.566038,1.526311,-0.312932,-1.668971
1664545417.81037,-0.048989,1.804862,0.563554,1.535515,-0.337476,-1.688913
1664545417.83004,-0.066558,1.806479,0.561069,1.547787,-0.362019,-1.707321
1664545417.85059,-0.084054,1.808151,0.558481,1.558524,-0.383495,-1.727262
1664545417.87035,-0.10241,1.809762,0.555903,1.570796,-0.406505,-1.74567
1664545417.88091,-0.11123,1.810576,0.554598,1.576932,-0.418777,-1.754874
1664545417.91013,-0.138624,1.813082,0.550312,1.590738,-0.45099,-1.780952
1664545417.93093,-0.156379,1.81468,0.547383,1.60301,-0.474,-1.79936
1664545417.95072,-0.17402,1.816353,0.544712,1.612214,-0.493942,-1.817767
1664545417.96979,-0.1925,1.817969,0.542041,1.621418,-0.513884,-1.833107
1664545417.9903,-0.210255,1.819642,0.539287,1.63369,-0.536893,-1.851515
1664545418.01,-0.228962,1.821227,0.536636,1.642893,-0.556835,-1.868389
1664545418.03052,-0.246696,1.822806,0.533769,1.653631,-0.578311,-1.885262
1664545418.05046,-0.264296,1.824479,0.531046,1.664369,-0.596719,-1.902136
1664545418.06961,-0.282755,1.826026,0.528323,1.672039,-0.615126,-1.917476
1664545418.09023,-0.300376,1.827574,0.525497,1.681243,-0.633534,-1.93435
1664545418.11043,-0.318783,1.829184,0.522836,1.690447,-0.65501,-1.94969
1664545418.13062,-0.336176,1.830744,0.520196,1.699651,-0.674952,-1.966563
1664545418.15056,-0.35333,1.832342,0.517794,1.708855,-0.691825,-1.980369
1664545418.17031,-0.371313,1.83387,0.515444,1.718059,-0.710233,-1.994175
1664545418.18111,-0.379937,1.834628,0.514067,1.72266,-0.717903,-2.003379
1664545418.2101,-0.406554,1.837028,0.51032,1.734932,-0.745515,-2.023321
1664545418.22977,-0.423439,1.838531,0.507835,1.742602,-0.762388,-2.037127
1664545418.25036,-0.440211,1.840117,0.505257,1.751806,-0.777728,-2.050932
1664545418.26983,-0.457686,1.841608,0.502835,1.759476,-0.794602,-2.064738
1664545418.29061,-0.47424,1.843105,0.50036,1.765612,-0.811476,-2.078544
1664545418.31036,-0.491446,1.844646,0.498062,1.774816,-0.826816,-2.090816
1664545418.33061,-0.50768,1.8461,0.495836,1.780952,-0.843689,-2.103088
1664545418.34128,-0.515703,1.84682,0.494542,1.785554,-0.851359,-2.110758
1664545418.37027,-0.540239,1.849045,0.490929,1.796292,-0.872835,-2.129165
1664545418.38993,-0.556027,1.850442,0.488527,1.802428,-0.886641,-2.139903
1664545418.41062,-0.57167,1.851889,0.48598,1.810097,-0.900447,-2.152175
1664545418.43002,-0.587841,1.853267,0.483785,1.816233,-0.914253,-2.162913
1664545418.45102,-0.602936,1.854633,0.48156,1.823903,-0.928058,-2.173651
1664545418.47066,-0.617833,1.856087,0.479479,1.830039,-0.94033,-2.184389
1664545418.49009,-0.633331,1.857402,0.477439,1.834641,-0.954136,-2.195127
1664545418.50076,-0.64063,1.85806,0.476321,1.839243,-0.961806,-2.201262
1664545418.53025,-0.662971,1.860065,0.473267,1.848447,-0.980214,-2.216602
1664545418.55071,-0.677093,1.861374,0.471072,1.854583,-0.99402,-2.22734
1664545418.57033,-0.690882,1.862728,0.468815,1.860719,-1.004757,-2.236544
1664545418.58986,-0.705118,1.863968,0.466703,1.865321,-1.015495,-2.247282
1664545418.61081,-0.718555,1.865215,0.464633,1.871457,-1.026233,-2.256486
1664545418.63076,-0.731942,1.8665,0.462635,1.877593,-1.038505,-2.264156
1664545418.65023,-0.745752,1.867728,0.460771,1.882195,-1.050777,-2.27336
1664545418.67113,-0.758548,1.868987,0.458835,1.88833,-1.059981,-2.282563
1664545418.69022,-0.771727,1.870133,0.456951,1.891398,-1.070719,-2.290233
1664545418.71126,-0.783995,1.871267,0.454953,1.896,-1.079923,-2.297903
1664545418.73057,-0.796046,1.872445,0.453038,1.900602,-1.087592,-2.304039
1664545418.75072,-0.808407,1.873554,0.451133,1.90367,-1.093728,-2.308641
1664545418.77093,-0.819816,1.874638,0.44928,1.908272,-1.099864,-2.314777
1664545418.79033,-0.831504,1.875709,0.447561,1.909806,-1.107534,-2.319379
1664545418.81005,-0.842261,1.876712,0.445925,1.912874,-1.112136,-2.323981
1664545418.83075,-0.852696,1.877689,0.444134,1.915942,-1.119806,-2.328583
1664545418.8505,-0.863122,1.878723,0.442602,1.91901,-1.122874,-2.334719
1664545418.87104,-0.872895,1.879688,0.440884,1.922078,-1.130544,-2.339321
1664545418.89062,-0.882347,1.880684,0.439372,1.925146,-1.13668,-2.343923
1664545418.90992,-0.892016,1.881599,0.437881,1.92668,-1.141282,-2.346991
1664545418.92091,-0.896489,1.882044,0.437156,1.928214,-1.14435,-2.350059
1664545418.95054,-0.909823,1.883422,0.435138,1.932816,-1.150486,-2.356194
1664545418.96972,-0.91796,1.884249,0.433792,1.93435,-1.155088,-2.359262
1664545418.99038,-0.925808,1.885063,0.432405,1.935884,-1.15969,-2.36233
1664545419.00997,-0.933666,1.885928,0.43109,1.937418,-1.164292,-2.365398
1664545419.03087,-0.940799,1.886705,0.429568,1.938952,-1.167359,-2.368466
1664545419.0505,-0.94759,1.887507,0.428243,1.940486,-1.170427,-2.37
1664545419.06994,-0.954402,1.888227,0.42699,1.94202,-1.171961,-2.373068
1664545419.09084,-0.96051,1.88891,0.425748,1.943554,-1.175029,-2.373068
1664545419.11086,-0.966225,1.889574,0.424609,1.943554,-1.175029,-2.376136
1664545419.13026,-0.971909,1.890245,0.423605,1.945088,-1.176563,-2.376136
1664545419.15105,-0.97694,1.890852,0.422559,1.945088,-1.178097,-2.376136
1664545419.1707,-0.981526,1.891492,0.421555,1.945088,-1.178097,-2.376136
1664545419.19004,-0.985978,1.892105,0.420696,1.945088,-1.178097,-2.376136
1664545419.21113,-0.98984,1.892663,0.419764,1.945088,-1.178097,-2.376136
1664545419.23106,-0.993432,1.893227,0.418967,1.946622,-1.178097,-2.376136
1664545419.25044,-0.9969,1.893728,0.418087,1.945088,-1.178097,-2.376136
1664545419.27107,-0.999923,1.894217,0.417434,1.946622,-1.178097,-2.37767
1664545419.29062,-1.002656,1.894693,0.416762,1.945088,-1.178097,-2.376136
1664545419.31013,-1.005286,1.89515,0.416058,1.946622,-1.178097,-2.37767
1664545419.33128,-1.007491,1.895564,0.415385,1.946622,-1.178097,-2.37767
1664545419.35077,-1.009583,1.896009,0.414505,1.945088,-1.178097,-2.376136
1664545419.37043,-1.011694,1.896404,0.413852,1.945088,-1.178097,-2.376136
1664545419.39104,-1.013537,1.896773,0.413293,1.945088,-1.178097,-2.37767
1664545419.41074,-1.015266,1.897162,0.412589,1.946622,-1.178097,-2.37767
1664545419.43066,-1.016933,1.897506,0.412061,1.946622,-1.178097,-2.37767
1664545419.45072,-1.018403,1.897857,0.411637,1.946622,-1.178097,-2.37767
1664545419.47065,-1.019697,1.898202,0.410964,1.945088,-1.178097,-2.37767
1664545419.49007,-1.021074,1.89854,0.410446,1.946622,-1.178097,-2.37767
1664545419.51074,-1.022306,1.89886,0.410053,1.946622,-1.178097,-2.37767
1664545419.53053,-1.023414,1.899166,0.409525,1.946622,-1.178097,-2.37767
1664545419.54997,-1.024459,1.899448,0.408976,1.946622,-1.178097,-2.37767
1664545419.57096,-1.025308,1.899693,0.408604,1.946622,-1.178097,-2.37767
1664545419.59063,-1.026043,1.899925,0.408303,1.946622,-1.178097,-2.376136
1664545419.61002,-1.02653,1.900156,0.408024,1.945088,-1.178097,-2.376136
1664545419.63102,-1.026768,1.900351,0.40762,1.946622,-1.178097,-2.376136
1664545419.65066,-1.02683,1.900488,0.407154,1.945088,-1.175029,-2.374602
1664545419.67042,-1.02683,1.900607,0.406957,1.943554,-1.173495,-2.37
1664545419.69098,-1.026778,1.900708,0.406792,1.94202,-1.167359,-2.366932
1664545419.71023,-1.026395,1.900739,0.406688,1.940486,-1.164292,-2.365398
1664545419.73044,-1.025505,1.900739,0.406678,1.937418,-1.15969,-2.360796
1664545419.75133,-1.024428,1.900727,0.406678,1.93435,-1.153554,-2.356194
1664545419.77122,-1.022958,1.900695,0.406678,1.932816,-1.147418,-2.351593
1664545419.79007,-1.021126,1.900651,0.406678,1.929748,-1.142816,-2.346991
1664545419.80967,-1.01919,1.900595,0.406678,1.92668,-1.135146,-2.340855
1664545419.83034,-1.016985,1.900539,0.406688,1.923612,-1.130544,-2.336253
1664545419.85031,-1.014293,1.900451,0.406688,1.920544,-1.122874,-2.330117
1664545419.8698,-1.011353,1.900351,0.406719,1.91901,-1.116738,-2.327049
1664545419.89038,-1.008206,1.900238,0.406771,1.915942,-1.110602,-2.320913
1664545419.91056,-1.004603,1.900119,0.406844,1.909806,-1.104466,-2.316311
1664545419.93054,-1.000824,1.899893,0.406926,1.906738,-1.09833,-2.308641
1664545419.9412,-0.998878,1.899724,0.406968,1.905204,-1.093728,-2.307107
1664545419.9705,-0.992583,1.899261,0.407154,1.900602,-1.081457,-2.296369
1664545419.98982,-0.988308,1.899004,0.40732,1.896,-1.072253,-2.288699
1664545420.01066,-0.983897,1.898546,0.40762,1.889864,-1.063049,-2.281029
1664545420.03037,-0.979446,1.898095,0.408034,1.885262,-1.053845,-2.270292
1664545420.04999,-0.974673,1.897688,0.408541,1.880661,-1.043107,-2.262622
1664545420.06074,-0.972364,1.897425,0.408842,1.877593,-1.035437,-2.256486
1664545420.09057,-0.965293,1.896748,0.41027,1.869923,-1.020097,-2.24268
1664545420.11036,-0.960024,1.896147,0.411254,1.863787,-1.007825,-2.23501
1664545420.13126,-0.954827,1.89567,0.412289,1.859185,-0.995554,-2.222738
1664545420.15096,-0.949422,1.895107,0.413283,1.853049,-0.983282,-2.213534
1664545420.17024,-0.943646,1.894662,0.414267,1.846913,-0.97101,-2.202796
1664545420.19002,-0.937776,1.894054,0.415271,1.839243,-0.958738,-2.192059
1664545420.20132,-0.934721,1.893803,0.415851,1.836175,-0.951068,-2.185923
1664545420.23076,-0.925114,1.892876,0.417383,1.826971,-0.931126,-2.169049
1664545420.25044,-0.917888,1.892312,0.41848,1.819301,-0.917321,-2.158311
1664545420.2709,-0.910693,1.891667,0.419671,1.811631,-0.900447,-2.144505
1664545420.29104,-0.903259,1.890946,0.420747,1.805495,-0.886641,-2.132233
1664545420.31052,-0.895257,1.890251,0.421876,1.797826,-0.871301,-2.118428
1664545420.33037,-0.887399,1.889537,0.423025,1.790156,-0.855961,-2.104622
1664545420.341,-0.883403,1.889148,0.423667,1.785554,-0.848291,-2.098486
1664545420.37036,-0.871155,1.887989,0.425427,1.773282,-0.823748,-2.078544
1664545420.39005,-0.862387,1.887287,0.42669,1.765612,-0.806874,-2.063204
1664545420.41123,-0.853928,1.886486,0.427994,1.756408,-0.788466,-2.049398
1664545420.43083,-0.845284,1.885633,0.429268,1.748738,-0.771592,-2.035593
1664545420.45037,-0.836132,1.884825,0.430624,1.739534,-0.754719,-2.020253
1664545420.46995,-0.827156,1.883967,0.432001,1.73033,-0.734777,-2.006447
1664545420.48113,-0.82258,1.883535,0.432788,1.725728,-0.725573,-1.998777
1664545420.51058,-0.808304,1.882238,0.435003,1.711923,-0.697961,-1.972699
1664545420.5301,-0.797692,1.881354,0.436515,1.702719,-0.679554,-1.95736
1664545420.54109,-0.792526,1.880947,0.437333,1.698117,-0.668816,-1.948156
1664545420.57034,-0.77651,1.879556,0.439589,1.684311,-0.641204,-1.925146
1664545420.59033,-0.764957,1.87856,0.44108,1.675107,-0.621262,-1.908272
1664545420.61096,-0.75389,1.877602,0.442706,1.664369,-0.599787,-1.889864
1664545420.63035,-0.742626,1.876593,0.444414,1.653631,-0.579845,-1.872991
1664545420.65044,-0.730689,1.875553,0.446091,1.644427,-0.558369,-1.856117
1664545420.67011,-0.719063,1.874488,0.447789,1.63369,-0.536893,-1.837709
1664545420.68069,-0.713193,1.87398,0.448731,1.627554,-0.526155,-1.828505
1664545420.71034,-0.69522,1.87232,0.451423,1.612214,-0.492408,-1.800894
1664545420.73038,-0.682404,1.871242,0.453193,1.60301,-0.472466,-1.782486
1664545420.75106,-0.670104,1.870133,0.455025,1.589204,-0.449456,-1.762544
1664545420.77054,-0.657691,1.869006,0.457013,1.58,-0.426447,-1.742602
1664545420.79045,-0.644367,1.867809,0.45897,1.567728,-0.403437,-1.724194
1664545420.81076,-0.63123,1.866625,0.460885,1.555457,-0.380427,-1.704253
1664545420.82069,-0.624532,1.866011,0.461982,1.550855,-0.368155,-1.693515
1664545420.85016,-0.603878,1.864069,0.464964,1.533981,-0.332874,-1.665903
1664545420.87017,-0.589104,1.86279,0.467055,1.523243,-0.309864,-1.644427
1664545420.88135,-0.582023,1.862195,0.468101,1.515573,-0.294524,-1.63369
1664545420.91072,-0.560603,1.860291,0.471341,1.497165,-0.257709,-1.60301
1664545420.9301,-0.545364,1.858912,0.473495,1.486427,-0.231631,-1.583068
1664545420.94979,-0.530621,1.857559,0.475741,1.472622,-0.207087,-1.561592
1664545420.97058,-0.515631,1.856181,0.478164,1.46035,-0.18101,-1.538583
1664545420.9908,-0.500578,1.854702,0.480431,1.448078,-0.154932,-1.518641
1664545421.01008,-0.484717,1.853217,0.482667,1.435806,-0.12732,-1.495631
1664545421.02136,-0.477108,1.852484,0.483837,1.428136,-0.113515,-1.483359
1664545421.05086,-0.453804,1.850304,0.48743,1.409728,-0.073631,-1.451146
1664545421.0703,-0.436981,1.848769,0.4898,1.397457,-0.047553,-1.42967
1664545421.09045,-0.420675,1.847253,0.492213,1.385185,-0.02301,-1.40666
1664545421.10087,-0.412455,1.84647,0.493445,1.377515,-0.00767,-1.395923
1664545421.13064,-0.387743,1.844089,0.497182,1.357573,0.029146,-1.365243
1664545421.15053,-0.370278,1.842566,0.499615,1.346835,0.055223,-1.345301
1664545421.1701,-0.353434,1.841,0.502058,1.334563,0.079767,-1.323825
1664545421.18092,-0.344903,1.840204,0.503311,1.328427,0.093573,-1.313088
1664545421.21068,-0.319269,1.837805,0.507266,1.31002,0.130388,-1.282408
1664545421.23024,-0.301256,1.836282,0.509833,1.300816,0.153398,-1.262466
1664545421.24992,-0.283915,1.834697,0.512421,1.288544,0.176408,-1.242525
1664545421.26121,-0.275156,1.833895,0.513736,1.280874,0.190214,-1.233321
1664545421.29025,-0.248612,1.831339,0.517753,1.264,0.225495,-1.207243
1664545421.31016,-0.230028,1.829698,0.52031,1.253262,0.246971,-1.187301
1664545421.33002,-0.212377,1.828031,0.522867,1.244058,0.269981,-1.167359
1664545421.34063,-0.203556,1.82721,0.524161,1.237923,0.282252,-1.156622
1664545421.37017,-0.176929,1.824742,0.528209,1.222583,0.314466,-1.130544
1664545421.39038,-0.158304,1.823006,0.530818,1.210311,0.335942,-1.11367
1664545421.41002,-0.140663,1.821377,0.533437,1.201107,0.355884,-1.095262
1664545421.4309,-0.12297,1.819755,0.536171,1.190369,0.378893,-1.078389
1664545421.45051,-0.105195,1.818063,0.538748,1.179631,0.400369,-1.063049
1664545421.47021,-0.086311,1.816465,0.541378,1.170427,0.420311,-1.044641
1664545421.49069,-0.068328,1.814849,0.543987,1.15969,0.441786,-1.027767
1664545421.51046,-0.050491,1.813245,0.54671,1.15202,0.460194,-1.010893
1664545421.53069,-0.032767,1.811585,0.549267,1.141282,0.480136,-0.995554
1664545421.54998,-0.014204,1.810037,0.551814,1.132078,0.498544,-0.980214
1664545421.57109,0.003375,1.808446,0.554298,1.119806,0.52002,-0.961806
1664545421.59044,0.020757,1.80688,0.556907,1.11367,0.538427,-0.949534
1664545421.61048,0.038005,1.805269,0.559381,1.104466,0.555301,-0.931126
1664545421.63004,0.056153,1.803753,0.561856,1.096796,0.573709,-0.918855
1664545421.65102,0.073505,1.802199,0.564309,1.087592,0.592117,-0.905049
1664545421.67069,0.090815,1.800671,0.566918,1.078389,0.60899,-0.888175
1664545421.69054,0.107928,1.799073,0.569424,1.069185,0.625864,-0.875903
1664545421.71013,0.125683,1.797601,0.571908,1.061515,0.642738,-0.862097
1664545421.73074,0.142392,1.796116,0.574352,1.055379,0.659612,-0.846757
1664545421.75072,0.159039,1.794618,0.576919,1.047709,0.674952,-0.834486
1664545421.77048,0.1755,1.793084,0.579383,1.038505,0.691825,-0.822214
1664545421.79032,0.192531,1.791668,0.581764,1.030835,0.708699,-0.809942
1664545421.81104,0.208557,1.790264,0.584125,1.024699,0.722505,-0.796136
1664545421.83049,0.224459,1.788892,0.586558,1.017029,0.737845,-0.785398
1664545421.85029,0.241137,1.787432,0.588877,1.010893,0.751651,-0.773126
1664545421.87005,0.256894,1.786067,0.591196,1.003223,0.763922,-0.762388
1664545421.89099,0.272444,1.784707,0.593452,0.99402,0.779262,-0.750117
1664545421.91075,0.287735,1.783322,0.595771,0.989418,0.791534,-0.739379
1664545421.93043,0.303544,1.781913,0.597977,0.98635,0.80534,-0.728641
1664545421.94988,0.3184,1.780559,0.60013,0.97868,0.819146,-0.717903
1664545421.96082,0.32574,1.779902,0.601196,0.972544,0.826816,-0.711767
1664545421.99049,0.347377,1.777884,0.604478,0.96334,0.843689,-0.697961
1664545422.01039,0.362182,1.776506,0.60659,0.960272,0.857495,-0.685689
1664545422.02993,0.376117,1.775228,0.608692,0.954136,0.869767,-0.676486
1664545422.04066,0.383022,1.774595,0.609737,0.949534,0.875903,-0.671884
1664545422.07047,0.403458,1.772709,0.612833,0.94033,0.891243,-0.658078
1664545422.0907,0.416906,1.7714,0.6148,0.935728,0.901981,-0.650408
1664545422.11039,0.430727,1.770178,0.616736,0.931126,0.912719,-0.63967
1664545422.13063,0.443668,1.768975,0.618651,0.926524,0.923456,-0.630466
1664545422.14106,0.449994,1.768399,0.619666,0.923456,0.928058,-0.627398
1664545422.17073,0.468629,1.766657,0.62242,0.917321,0.941864,-0.61666
1664545422.19072,0.481332,1.765448,0.624231,0.914253,0.949534,-0.612058
1664545422.21012,0.493155,1.764339,0.626074,0.909651,0.957204,-0.604388
1664545422.221,0.498952,1.763806,0.626944,0.908117,0.961806,-0.602854
1664545422.25093,0.515776,1.76219,0.629667,0.903515,0.969476,-0.593651
1664545422.27071,0.526594,1.761125,0.631375,0.900447,0.975612,-0.589049
1664545422.29006,0.537599,1.760085,0.633073,0.897379,0.981748,-0.584447
1664545422.31086,0.547848,1.759107,0.634719,0.894311,0.987884,-0.579845
1664545422.33079,0.557746,1.758117,0.636385,0.892777,0.99402,-0.573709
1664545422.35063,0.567353,1.757159,0.637928,0.889709,1.000155,-0.570641
1664545422.37034,0.57664,1.75625,0.639377,0.886641,1.004757,-0.567573
1664545422.38999,0.585998,1.755392,0.640796,0.883573,1.009359,-0.562971
1664545422.40104,0.590316,1.754997,0.6415,0.883573,1.012427,-0.559903
1664545422.43084,0.60276,1.753776,0.643684,0.880505,1.018563,-0.555301
1664545422.45028,0.610535,1.752917,0.645113,0.878971,1.023165,-0.550699
1664545422.47047,0.618413,1.752128,0.646397,0.875903,1.027767,-0.549165
1664545422.49104,0.625546,1.751332,0.64767,0.874369,1.030835,-0.546097
1664545422.51077,0.632348,1.750593,0.648985,0.872835,1.030835,-0.543029
1664545422.53048,0.63887,1.749816,0.650124,0.872835,1.035437,-0.541495
1664545422.55051,0.64533,1.749102,0.651242,0.871301,1.036971,-0.539961
1664545422.57043,0.651169,1.748463,0.652329,0.871301,1.036971,-0.539961
1664545422.58096,0.653964,1.748124,0.652857,0.869767,1.038505,-0.539961
1664545422.61102,0.661708,1.747191,0.65442,0.869767,1.040039,-0.538427
1664545422.63035,0.666357,1.746558,0.655393,0.869767,1.040039,-0.538427
1664545422.65039,0.670808,1.745975,0.656356,0.871301,1.038505,-0.538427
1664545422.67115,0.674629,1.745524,0.657226,0.869767,1.038505,-0.538427
1664545422.69086,0.67819,1.744979,0.658168,0.869767,1.040039,-0.536893
1664545422.71053,0.681441,1.744465,0.659068,0.871301,1.040039,-0.536893
1664545422.73027,0.684526,1.743977,0.659917,0.869767,1.040039,-0.536893
1664545422.75096,0.687249,1.743544,0.660746,0.869767,1.040039,-0.538427
1664545422.76155,0.688522,1.743369,0.661087,0.869767,1.040039,-0.536893
1664545422.79031,0.692239,1.742605,0.662185,0.871301,1.040039,-0.536893
1664545422.81026,0.694465,1.742185,0.662868,0.869767,1.038505,-0.536893
1664545422.83047,0.696639,1.741715,0.663541,0.869767,1.040039,-0.536893
1664545422.85081,0.698502,1.741389,0.664193,0.869767,1.040039,-0.538427
1664545422.87089,0.700262,1.741038,0.664731,0.869767,1.038505,-0.536893
1664545422.89042,0.702012,1.740581,0.665301,0.869767,1.040039,-0.536893
1664545422.91063,0.703647,1.740312,0.665922,0.869767,1.040039,-0.538427
1664545422.92989,0.705004,1.739936,0.66644,0.869767,1.040039,-0.536893
1664545422.941,0.705635,1.739735,0.666719,0.869767,1.038505,-0.536893
1664545422.97012,0.707385,1.739347,0.667558,0.869767,1.040039,-0.536893
1664545422.99018,0.708441,1.739065,0.668065,0.869767,1.038505,-0.536893
1664545423.01008,0.709517,1.738701,0.668469,0.869767,1.038505,-0.538427
1664545423.03061,0.710418,1.738419,0.668883,0.869767,1.040039,-0.536893
1664545423.05066,0.711174,1.738231,0.669338,0.869767,1.040039,-0.536893
1664545423.07038,0.711816,1.737937,0.669721,0.869767,1.040039,-0.536893
1664545423.09006,0.712427,1.737605,0.670084,0.871301,1.040039,-0.536893
1664545423.11018,0.713006,1.737398,0.670394,0.869767,1.040039,-0.536893
1664545423.13073,0.71342,1.737285,0.670767,0.869767,1.040039,-0.536893
1664545423.15067,0.713669,1.73721,0.671109,0.869767,1.040039,-0.538427
1664545423.17056,0.713741,1.737054,0.671367,0.871301,1.038505,-0.539961
1664545423.19046,0.713741,1.736853,0.671554,0.871301,1.032369,-0.543029
1664545423.21008,0.713617,1.736753,0.671668,0.872835,1.030835,-0.547631
1664545423.23057,0.713037,1.736728,0.671688,0.874369,1.024699,-0.552233
1664545423.25062,0.712189,1.736728,0.671688,0.877437,1.018563,-0.555301
1664545423.27072,0.710977,1.736728,0.671688,0.880505,1.013961,-0.559903
1664545423.29018,0.709455,1.736728,0.671688,0.882039,1.007825,-0.564505
1664545423.30973,0.707664,1.73674,0.671688,0.883573,1.001689,-0.569107
1664545423.32962,0.705646,1.736791,0.671688,0.888175,0.995554,-0.573709
1664545423.35042,0.703275,1.736866,0.671637,0.891243,0.987884,-0.579845
1664545423.37055,0.700666,1.736953,0.671585,0.892777,0.983282,-0.584447
1664545423.39031,0.697767,1.737098,0.671523,0.895845,0.975612,-0.590583
1664545423.41029,0.694433,1.737267,0.67145,0.900447,0.969476,-0.595185
1664545423.431,0.691141,1.737436,0.671357,0.903515,0.96334,-0.601321
1664545423.45081,0.68758,1.73758,0.671264,0.906583,0.95567,-0.605922
1664545423.47081,0.683853,1.737805,0.671171,0.911185,0.949534,-0.612058
1664545423.49082,0.680074,1.738106,0.671067,0.915787,0.94033,-0.619728
1664545423.50995,0.676026,1.738457,0.670891,0.920389,0.931126,-0.627398
1664545423.53078,0.67203,1.738845,0.670477,0.926524,0.921923,-0.636602
1664545423.55082,0.667806,1.739265,0.669918,0.931126,0.911185,-0.645806
1664545423.57027,0.663427,1.73971,0.669411,0.934194,0.900447,-0.65501
1664545423.59038,0.658851,1.740199,0.668665,0.937262,0.888175,-0.664214
1664545423.6101,0.653799,1.740694,0.66792,0.941864,0.877437,-0.671884
1664545423.62983,0.648705,1.741195,0.667061,0.949534,0.866699,-0.681087
1664545423.64069,0.646096,1.741458,0.666584,0.952602,0.860563,-0.687223
1664545423.67047,0.637824,1.74226,0.665321,0.961806,0.842155,-0.702563
1664545423.69013,0.631996,1.742824,0.664338,0.967942,0.829884,-0.713301
1664545423.71004,0.625629,1.743363,0.663292,0.974078,0.817612,-0.722505
1664545423.73103,0.619334,1.743914,0.662216,0.981748,0.802272,-0.734777
1664545423.74089,0.616115,1.744196,0.66176,0.984816,0.79767,-0.740913
1664545423.7703,0.606155,1.745098,0.660166,0.997088,0.776194,-0.757787
1664545423.78995,0.599219,1.745762,0.658944,1.003223,0.760854,-0.768524
1664545423.80994,0.591734,1.746401,0.657774,1.007825,0.748583,-0.78233
1664545423.82989,0.584383,1.747059,0.656739,1.013961,0.733243,-0.796136
1664545423.84102,0.580615,1.747416,0.656263,1.018563,0.724039,-0.802272
1664545423.87045,0.568978,1.748494,0.654503,1.030835,0.701029,-0.82068
1664545423.8904,0.560965,1.749271,0.653499,1.038505,0.684155,-0.83602
1664545423.90995,0.552342,1.75001,0.652494,1.046175,0.667282,-0.848291
1664545423.93016,0.543821,1.750756,0.651169,1.055379,0.651942,-0.863631
1664545423.95071,0.535063,1.751533,0.649927,1.063049,0.633534,-0.877437
1664545423.97068,0.526097,1.752328,0.648581,1.073787,0.61666,-0.892777
1664545423.99004,0.516873,1.753187,0.647007,1.084524,0.598253,-0.906583
1664545424.00997,0.507007,1.754039,0.645444,1.092194,0.579845,-0.921923
1664545424.02991,0.49741,1.754922,0.643891,1.096796,0.561437,-0.938796
1664545424.04086,0.492471,1.755367,0.643073,1.101398,0.550699,-0.948
1664545424.07076,0.477284,1.756689,0.640682,1.119806,0.523087,-0.972544
1664545424.09015,0.466848,1.75761,0.639087,1.132078,0.503146,-0.98635
1664545424.11033,0.456133,1.758612,0.637555,1.138214,0.483204,-1.003223
1664545424.13007,0.444662,1.759596,0.635971,1.14435,0.463262,-1.021631
1664545424.14956,0.433585,1.760617,0.634315,1.156622,0.441786,-1.038505
1664545424.16105,0.428015,1.761137,0.633549,1.164292,0.429515,-1.049243
1664545424.19067,0.41084,1.762685,0.631033,1.178097,0.398835,-1.073787
1664545424.21023,0.399069,1.763731,0.629325,1.185767,0.377359,-1.09066
1664545424.22992,0.386977,1.764871,0.627503,1.198039,0.355884,-1.110602
1664545424.24996,0.374129,1.76598,0.625774,1.211845,0.334408,-1.12901
1664545424.2696,0.361643,1.767095,0.624024,1.222583,0.312932,-1.147418
1664545424.28089,0.355297,1.767672,0.623082,1.227185,0.299126,-1.158156
1664545424.31035,0.336082,1.769395,0.620142,1.242525,0.265379,-1.185767
1664545424.33034,0.323027,1.770573,0.618144,1.254796,0.242369,-1.205709
1664545424.35,0.309672,1.771844,0.616094,1.267068,0.219359,-1.224117
1664545424.36976,0.295344,1.773098,0.613961,1.277806,0.194816,-1.245592
1664545424.39109,0.28142,1.774376,0.611798,1.290078,0.168738,-1.265534
1664545424.41053,0.26735,1.775635,0.609572,1.30235,0.145728,-1.28701
1664545424.43043,0.253198,1.776938,0.607398,1.314622,0.121184,-1.306952
1664545424.45072,0.238787,1.778348,0.605327,1.323825,0.096641,-1.328427
1664545424.47056,0.223351,1.779689,0.60307,1.336097,0.070563,-1.349903
1664545424.49029,0.208412,1.781067,0.600844,1.348369,0.046019,-1.369845
1664545424.50119,0.200854,1.78175,0.599737,1.356039,0.032214,-1.382117
1664545424.53065,0.177975,1.783861,0.596237,1.377515,-0.006136,-1.41433
1664545424.55058,0.16259,1.785283,0.593856,1.389787,-0.032214,-1.43734
1664545424.56993,0.146989,1.786843,0.591496,1.398991,-0.058291,-1.458816
1664545424.58997,0.130217,1.788316,0.589135,1.412796,-0.085903,-1.480291
1664545424.61064,0.113974,1.789826,0.586765,1.42967,-0.113515,-1.503301
1664545424.63068,0.097575,1.791348,0.584342,1.441942,-0.139592,-1.524777
1664545424.6507,0.081062,1.792914,0.581919,1.451146,-0.164136,-1.544719
1664545424.67095,0.064394,1.794543,0.579435,1.463418,-0.18868,-1.566194
1664545424.69048,0.047499,1.796097,0.577054,1.478758,-0.213223,-1.58767
1664545424.71036,0.029588,1.797657,0.574641,1.489495,-0.237767,-1.607612
1664545424.73127,0.012372,1.799255,0.572146,1.500233,-0.260777,-1.629088
1664545424.74086,0.003758,1.80005,0.570935,1.504835,-0.273049,-1.638291
1664545424.77058,-0.022114,1.8024,0.567146,1.524777,-0.309864,-1.667437
1664545424.79059,-0.039662,1.803998,0.564661,1.535515,-0.334408,-1.687379
1664545424.81056,-0.058297,1.805733,0.562166,1.546253,-0.360485,-1.707321
1664545424.83013,-0.076083,1.807343,0.55964,1.556991,-0.381961,-1.725728
1664545424.84099,-0.084955,1.808151,0.558367,1.56466,-0.395767,-1.734932
1664545424.87084,-0.111644,1.81062,0.554288,1.581534,-0.427981,-1.764078
1664545424.89041,-0.129544,1.812255,0.551575,1.590738,-0.45099,-1.782486
1664545424.91055,-0.147517,1.813953,0.548718,1.601476,-0.472466,-1.79936
1664545424.93041,-0.16638,1.815569,0.546006,1.612214,-0.493942,-1.817767
1664545424.95093,-0.184197,1.817198,0.543345,1.621418,-0.515418,-1.834641
1664545424.96111,-0.193121,1.818013,0.541937,1.627554,-0.526155,-1.843845
1664545424.99046,-0.220193,1.820431,0.537796,1.642893,-0.556835,-1.868389
1664545425.01032,-0.238228,1.822041,0.535115,1.652097,-0.578311,-1.885262
1664545425.03019,-0.256128,1.823733,0.532371,1.662835,-0.596719,-1.902136
1664545425.04999,-0.273986,1.825331,0.529628,1.672039,-0.615126,-1.917476
1664545425.06988,-0.292715,1.826885,0.526936,1.681243,-0.633534,-1.93435
1664545425.08119,-0.301618,1.827668,0.52559,1.685845,-0.645806,-1.94202
1664545425.11083,-0.328235,1.830005,0.521449,1.699651,-0.673418,-1.965029
1664545425.13048,-0.345762,1.831565,0.518964,1.707321,-0.691825,-1.980369
1664545425.15064,-0.363144,1.8331,0.516542,1.716525,-0.710233,-1.994175
1664545425.1703,-0.38061,1.834729,0.514067,1.725728,-0.727107,-2.009515
1664545425.19015,-0.398934,1.836282,0.511583,1.734932,-0.745515,-2.024855
1664545425.20989,-0.416192,1.83783,0.509077,1.742602,-0.763922,-2.038661
1664545425.22101,-0.424744,1.838582,0.507825,1.74567,-0.771592,-2.04633
1664545425.25022,-0.450139,1.840875,0.503922,1.757942,-0.796136,-2.066272
1664545425.27025,-0.466993,1.842372,0.501468,1.765612,-0.811476,-2.078544
1664545425.28995,-0.483682,1.843951,0.499066,1.773282,-0.82835,-2.090816
1664545425.3102,-0.501064,1.845417,0.49683,1.780952,-0.843689,-2.103088
1664545425.3301,-0.517339,1.846877,0.494511,1.788622,-0.859029,-2.116894
1664545425.3411,-0.525352,1.847604,0.49331,1.79169,-0.866699,-2.123029
1664545425.3707,-0.549412,1.849765,0.489583,1.802428,-0.888175,-2.141437
1664545425.3906,-0.565417,1.851156,0.48714,1.808563,-0.901981,-2.152175
1664545425.41014,-0.581122,1.852622,0.484852,1.816233,-0.915787,-2.162913
1664545425.43023,-0.596517,1.853988,0.482647,1.820835,-0.928058,-2.173651
1664545425.44993,-0.612481,1.855379,0.480535,1.826971,-0.94033,-2.184389
1664545425.47118,-0.627513,1.856732,0.478443,1.834641,-0.954136,-2.195127
1664545425.48084,-0.634936,1.85739,0.477439,1.837709,-0.961806,-2.199728
1664545425.51057,-0.656884,1.859351,0.474261,1.846913,-0.977146,-2.213534
1664545425.53078,-0.671254,1.860641,0.472139,1.851515,-0.989418,-2.222738
1664545425.5507,-0.685292,1.862014,0.469913,1.857651,-1.000155,-2.233476
1664545425.57012,-0.699672,1.863267,0.467801,1.862253,-1.010893,-2.241146
1664545425.59023,-0.713213,1.864507,0.465823,1.866855,-1.021631,-2.251884
1664545425.60095,-0.719922,1.865121,0.464798,1.869923,-1.027767,-2.254952
1664545425.63067,-0.739841,1.866951,0.461951,1.879127,-1.044641,-2.268758
1664545425.65057,-0.752792,1.868166,0.460026,1.883729,-1.055379,-2.277961
1664545425.67043,-0.765412,1.869344,0.458224,1.88833,-1.066117,-2.285631
1664545425.69038,-0.777804,1.870528,0.456288,1.892932,-1.075321,-2.293301
1664545425.7101,-0.79058,1.871662,0.454425,1.897534,-1.08299,-2.299437
1664545425.73101,-0.802465,1.872771,0.452489,1.902136,-1.09066,-2.307107
1664545425.74071,-0.808324,1.873329,0.451547,1.90367,-1.095262,-2.308641
1664545425.77109,-0.825313,1.874926,0.448752,1.908272,-1.104466,-2.316311
1664545425.79079,-0.836298,1.875941,0.447075,1.909806,-1.110602,-2.322447
1664545425.81014,-0.84692,1.876981,0.445418,1.912874,-1.118272,-2.327049
1664545425.83004,-0.857604,1.877959,0.443751,1.917476,-1.12134,-2.331651
1664545425.85025,-0.867449,1.878924,0.442167,1.91901,-1.127476,-2.336253
1664545425.86129,-0.872305,1.879412,0.44136,1.920544,-1.132078,-2.339321
1664545425.89066,-0.886426,1.880834,0.43903,1.925146,-1.139748,-2.346991
1664545425.91071,-0.895516,1.881737,0.437467,1.92668,-1.14435,-2.350059
1664545425.93033,-0.904284,1.882632,0.43609,1.929748,-1.150486,-2.354661
1664545425.95052,-0.912691,1.883541,0.434827,1.931282,-1.153554,-2.357728
1664545425.97038,-0.921087,1.884355,0.433492,1.93435,-1.158156,-2.360796
1664545425.99074,-0.9288,1.885164,0.432208,1.935884,-1.162758,-2.363864
1664545426.00106,-0.932537,1.885583,0.431587,1.937418,-1.164292,-2.365398
1664545426.03093,-0.943211,1.886749,0.429319,1.938952,-1.168893,-2.37
1664545426.05074,-0.94993,1.887494,0.427994,1.940486,-1.171961,-2.371534
1664545426.0707,-0.956297,1.88824,0.426752,1.94202,-1.173495,-2.373068
1664545426.09043,-0.962281,1.888923,0.425468,1.94202,-1.176563,-2.374602
1664545426.10997,-0.968182,1.889574,0.424423,1.943554,-1.176563,-2.376136
1664545426.1301,-0.973472,1.890207,0.423408,1.943554,-1.176563,-2.376136
1664545426.14095,-0.975967,1.890502,0.422911,1.943554,-1.178097,-2.376136
1664545426.17081,-0.982821,1.891404,0.4214,1.943554,-1.176563,-2.376136
1664545426.19086,-0.986951,1.892005,0.420571,1.945088,-1.178097,-2.376136
1664545426.21059,-0.99072,1.892563,0.419753,1.943554,-1.178097,-2.376136
1664545426.23072,-0.994188,1.893127,0.419018,1.943554,-1.178097,-2.376136
1664545426.25058,-0.997439,1.893628,0.418169,1.943554,-1.178097,-2.376136
1664545426.26994,-1.000524,1.89411,0.417548,1.943554,-1.178097,-2.376136
1664545426.29117,-1.003195,1.894561,0.416886,1.943554,-1.178097,-2.376136
1664545426.30064,-1.004468,1.894787,0.416534,1.943554,-1.178097,-2.376136
1664545426.33081,-1.007791,1.895426,0.415447,1.945088,-1.178097,-2.376136
1664545426.35053,-1.009831,1.89584,0.414619,1.943554,-1.178097,-2.376136
1664545426.37047,-1.01185,1.896253,0.413956,1.945088,-1.178097,-2.37767
1664545426.39039,-1.013672,1.896623,0.413438,1.945088,-1.178097,-2.37767
1664545426.40995,-1.015463,1.89698,0.412755,1.943554,-1.178097,-2.376136
1664545426.43102,-1.017047,1.897331,0.412175,1.945088,-1.178097,-2.376136
1664545426.44125,-1.017792,1.8975,0.411968,1.945088,-1.178097,-2.37767
1664545426.46105,-1.019117,1.897838,0.411502,1.943554,-1.178097,-2.376136
1664545426.49016,-1.021064,1.898333,0.410612,1.945088,-1.178097,-2.37767
1664545426.5103,-1.022285,1.898646,0.410177,1.945088,-1.178097,-2.37767
1664545426.53034,-1.023393,1.898947,0.409763,1.943554,-1.178097,-2.376136
1664545426.54995,-1.024428,1.899242,0.409204,1.945088,-1.178097,-2.37767
1664545426.56983,-1.025319,1.899505,0.40878,1.943554,-1.178097,-2.37767
1664545426.58122,-1.025753,1.899624,0.408614,1.945088,-1.178097,-2.37767
1664545426.61093,-1.026778,1.899975,0.408169,1.945088,-1.178097,-2.37767
1664545426.63099,-1.027161,1.900213,0.407817,1.945088,-1.178097,-2.37767
1664545426.65055,-1.027472,1.900401,0.407258,1.943554,-1.178097,-2.376136
1664545426.67062,-1.027752,1.90057,0.406916,1.945088,-1.176563,-2.376136
1664545426.69031,-1.027928,1.900708,0.406688,1.943554,-1.175029,-2.374602
1664545426.71018,-1.027928,1.900827,0.406533,1.94202,-1.173495,-2.37
1664545426.72101,-1.027917,1.900877,0.406481,1.940486,-1.170427,-2.37
